question_category_id,address,latitude,longitude,
1,神奈川県鎌倉市長谷４丁目２−２８,35.31698228529944,139.53508604094498,
2,埼玉県深谷市下手計１２０４,36.23831182320296,139.2999995965534,
3,京都府京都市北区金閣寺町１,35.03946660768923,135.72951131865676,
4,東京都千代田区九段北３丁目１−１,35.6958829143982,139.74348501194302,
5,三重県伊勢市宇治館町１,34.455142680555085,136.72571789591157,